station_id,StationName,AvailableDocks,TotalDocks,latitude,longitude,StatusValue,StatusKey,AvailableBikes
301,E 2 St & Avenue B,30,58,40.72217444,-73.98368779,In Service,1,28
304,Broadway & Battery Pl,17,33,40.70463334,-74.01361706,In Service,1,14
377,6 Ave & Canal St,21,45,40.72243797,-74.00566443,In Service,1,22
402,Broadway & E 22 St,21,39,40.7403432,-73.98955109,In Service,1,14
438,St Marks Pl & 1 Ave,10,47,40.72779126,-73.98564945,In Service,1,34
3223,E 55 St & 3 Ave,40,53,40.75899656,-73.96865398,In Service,1,13
3233,E 48 St & 5 Ave,29,39,40.75724568,-73.97805914,In Service,1,8
3255,8 Ave & W 31 St,10,19,40.75058535,-73.99468482,In Service,1,6
3443,W 52 St & 6 Ave,4,41,40.76132983,-73.97982001,In Service,1,36
3457,E 58 St & Madison Ave,22,46,40.76302594,-73.97209525,In Service,1,23
72,W 52 St & 11 Ave,40,55,40.76727216,-73.99392888,In Service,1,14
79,Franklin St & W Broadway,11,33,40.71911552,-74.00666661,In Service,1,18
82,St James Pl & Pearl St,0,27,40.71117416,-74.00016545,In Service,1,27
83,Atlantic Ave & Fort Greene Pl,37,62,40.68382604,-73.97632328,In Service,1,22
119,Park Ave & St Edwards St,7,19,40.69608941,-73.97803415,In Service,1,12
120,Lexington Ave & Classon Ave,2,19,40.68676793,-73.95928168,In Service,1,16
127,Barrow St & Hudson St,2,31,40.73172428,-74.00674436,In Service,1,25
128,MacDougal St & Prince St,5,30,40.72710258,-74.00297088,In Service,1,22
143,Clinton St & Joralemon St,0,24,40.69239502,-73.99337909,In Service,1,23
144,Nassau St & Navy St,4,19,40.69839895,-73.98068914,In Service,1,14
146,Hudson St & Reade St,18,39,40.71625008,-74.0091059,In Service,1,18
150,E 2 St & Avenue C,13,54,40.7208736,-73.98085795,In Service,1,39
151,Cleveland Pl & Spring St,19,33,40.72210379,-73.99724901,In Service,1,11
157,Henry St & Atlantic Ave,12,23,40.69089272,-73.99612349,In Service,1,9
161,LaGuardia Pl & W 3 St,7,35,40.72917025,-73.99810231,In Service,1,25
164,E 47 St & 2 Ave,41,47,40.75323098,-73.97032517,In Service,1,5
167,E 39 St & 3 Ave,41,45,40.7489006,-73.97604882,In Service,1,3
168,W 18 St & 6 Ave,13,47,40.73971301,-73.99456405,In Service,1,34
173,Broadway & W 49 St,16,51,40.76068327,-73.98452729,In Service,1,32
174,E 25 St & 1 Ave,2,30,40.7381765,-73.97738662,In Service,1,25
195,Liberty St & Broadway,36,45,40.70905623,-74.01043382,In Service,1,8
212,W 16 St & The High Line,35,60,40.74334935,-74.00681753,In Service,1,23
216,Columbia Heights & Cranberry St,18,23,40.70037867,-73.99548059,In Service,1,3
217,Old Fulton St,24,39,40.70277159,-73.99383605,In Service,1,15
223,W 13 St & 7 Ave,16,33,40.73781509,-73.99994661,In Service,1,16
224,Spruce St & Nassau St,17,31,40.71146364,-74.00552427,In Service,1,14
228,E 48 St & 3 Ave,37,55,40.7546011,-73.97187886,In Service,1,18
229,Great Jones St,4,23,40.72743423,-73.99379025,In Service,1,15
236,St Marks Pl & 2 Ave,17,47,40.7284186,-73.98713956,In Service,1,29
237,E 11 St & 2 Ave,19,27,40.73047309,-73.98672378,In Service,1,2
238,Bank St & Washington St,11,31,40.7361967,-74.00859207,In Service,1,19
239,Willoughby St & Fleet St,15,31,40.69196566,-73.9813018,In Service,1,16
241,DeKalb Ave & S Portland Ave,10,23,40.68981035,-73.97493121,In Service,1,12
242,Carlton Ave & Flushing Ave,0,23,40.697787,-73.973736,In Service,1,19
243,Fulton St & Rockwell Pl,17,31,40.688226,-73.979382,In Service,1,10
244,Willoughby Ave & Hall St,24,31,40.69196035,-73.96536851,In Service,1,4
245,Myrtle Ave & St Edwards St,10,23,40.69327018,-73.97703874,In Service,1,13
247,Perry St & Bleecker St,13,54,40.73535398,-74.00483091,In Service,1,40
248,Laight St & Hudson St,13,23,40.72185379,-74.00771779,In Service,1,6
249,Harrison St & Hudson St,19,27,40.71870987,-74.0090009,In Service,1,7
251,Mott St & Prince St,7,27,40.72317958,-73.99480012,In Service,1,18
252,MacDougal St & Washington Sq,14,33,40.73226398,-73.99852205,In Service,1,16
254,W 11 St & 6 Ave,16,59,40.73532427,-73.99800419,In Service,1,41
257,Lispenard St & Broadway,18,39,40.71939226,-74.00247214,In Service,1,13
258,DeKalb Ave & Vanderbilt Ave,12,23,40.68940747,-73.96885458,In Service,1,11
259,South St & Whitehall St,11,39,40.70122128,-74.01234218,In Service,1,24
260,Broad St & Bridge St,0,0,40.70365182,-74.01167797,Not In Service,3,0
261,Johnson St & Gold St,12,27,40.69474881,-73.98362464,In Service,1,13
262,Washington Park,15,24,40.6917823,-73.9737299,In Service,1,8
264,Maiden Ln & Pearl St,1,27,40.70706456,-74.00731853,In Service,1,21
265,Stanton St & Chrystie St,14,35,40.72229346,-73.99147535,In Service,1,17
266,Avenue D & E 8 St,5,30,40.72368361,-73.97574813,In Service,1,22
267,Broadway & W 36 St,48,57,40.75097711,-73.98765428,In Service,1,8
268,Howard St & Centre St,1,27,40.71910537,-73.99973337,In Service,1,20
270,Adelphi St & Myrtle Ave,17,23,40.69308257,-73.97178913,In Service,1,5
274,Lafayette Ave & Fort Greene Pl,1,31,40.68691865,-73.976682,In Service,1,30
275,Washington Ave & Greene Ave,7,19,40.68650065,-73.96563307,In Service,1,6
276,Duane St & Greenwich St,2,25,40.71748752,-74.0104554,In Service,1,22
278,Concord St & Bridge St,9,19,40.69766564,-73.98476437,In Service,1,7
279,Peck Slip & Front St,7,36,40.707873,-74.00167,In Service,1,27
280,E 10 St & 5 Ave,3,31,40.73331967,-73.99510132,In Service,1,25
281,Grand Army Plaza & Central Park S,11,66,40.7643971,-73.97371465,In Service,1,40
282,Kent Ave & S 11 St,16,27,40.70764494,-73.96841526,In Service,1,10
285,Broadway & E 14 St,16,53,40.73454567,-73.99074142,In Service,1,36
289,Monroe St & Classon Ave,12,19,40.6845683,-73.95881081,In Service,1,7
291,Madison St & Montgomery St,11,20,40.713126,-73.984844,In Service,1,9
293,Lafayette St & E 8 St,12,55,40.73020661,-73.99102628,In Service,1,41
295,Pike St & E Broadway,9,24,40.71406667,-73.99293911,In Service,1,13
296,Division St & Bowery,4,35,40.71413089,-73.9970468,In Service,1,27
297,E 15 St & 3 Ave,15,27,40.734232,-73.986923,In Service,1,10
298,3 Ave & Schermerhorn St,13,35,40.68683208,-73.9796772,In Service,1,18
302,Avenue D & E 3 St,11,23,40.72082834,-73.97793172,In Service,1,12
303,Mercer St & Spring St,35,67,40.72362738,-73.99949601,In Service,1,32
305,E 58 St & 3 Ave,16,33,40.76095756,-73.96724467,In Service,1,16
307,Canal St & Rutgers St,14,30,40.71427487,-73.98990025,In Service,1,16
308,St James Pl & Oliver St,2,27,40.71307916,-73.99851193,In Service,1,24
309,Murray St & West St,20,41,40.7149787,-74.013012,In Service,1,18
310,State St & Smith St,0,36,40.68926942,-73.98912867,In Service,1,33
311,Norfolk St & Broome St,6,31,40.7172274,-73.98802084,In Service,1,25
312,Allen St & Stanton St,14,31,40.722055,-73.989111,In Service,1,15
313,Washington Ave & Park Ave,12,23,40.69610226,-73.96751037,In Service,1,11
314,Cadman Plaza West & Montague St,22,39,40.69383,-73.990539,In Service,1,16
315,South St & Gouverneur Ln,4,29,40.70355377,-74.00670227,In Service,1,22
316,Fulton St & William St,24,43,40.70955958,-74.00653609,In Service,1,19
317,E 6 St & Avenue B,36,54,40.72453734,-73.98185424,In Service,1,15
319,Fulton St & Broadway,15,33,40.711066,-74.009447,In Service,1,17
320,Leonard St & Church St,8,27,40.717571,-74.005549,In Service,1,17
321,Cadman Plaza E & Red Cross Pl,20,27,40.69991755,-73.98971773,In Service,1,7
322,Clinton St & Tillary St,0,0,40.696192,-73.991218,Not In Service,3,0
323,Lawrence St & Willoughby St,22,39,40.69236178,-73.98631746,In Service,1,15
324,DeKalb Ave & Hudson Ave,14,51,40.689888,-73.981013,In Service,1,35
325,E 19 St & 3 Ave,31,35,40.73624527,-73.98473765,In Service,1,4
326,E 11 St & 1 Ave,20,41,40.72953837,-73.98426726,In Service,1,20
327,Vesey Pl & River Terrace,33,39,40.7153379,-74.01658354,In Service,1,4
328,Watts St & Greenwich St,9,23,40.72405549,-74.00965965,In Service,1,12
330,Reade St & Broadway,24,39,40.71450451,-74.00562789,In Service,1,12
331,Pike St & Monroe St,7,27,40.71173107,-73.99193043,In Service,1,12
332,Cherry St,15,36,40.71219906,-73.97948148,In Service,1,19
334,W 20 St & 7 Ave,20,31,40.74238787,-73.99726235,In Service,1,10
335,Washington Pl & Broadway,9,27,40.72903917,-73.99404649,In Service,1,16
336,Sullivan St & Washington Sq,14,36,40.73047747,-73.99906065,In Service,1,20
337,Old Slip & Front St,11,37,40.7037992,-74.00838676,In Service,1,26
339,Avenue D & E 12 St,2,30,40.72580614,-73.97422494,In Service,1,24
340,Madison St & Clinton St,7,27,40.71269042,-73.98776323,In Service,1,19
341,Stanton St & Mangin St,0,19,40.71782143,-73.97628939,In Service,1,13
342,Columbia St & Rivington St,7,29,40.71739973,-73.98016555,In Service,1,21
343,Clinton Ave & Flushing Ave,9,23,40.69794,-73.96986848,In Service,1,13
344,Monroe St & Bedford Ave,7,23,40.6851443,-73.95380904,In Service,1,16
346,Bank St & Hudson St,11,27,40.73652889,-74.00618026,In Service,1,16
347,Greenwich St & W Houston St,3,35,40.728846,-74.008591,In Service,1,26
349,Rivington St & Ridge St,14,61,40.71850211,-73.98329859,In Service,1,42
350,Clinton St & Grand St,14,28,40.71559509,-73.9870295,In Service,1,13
351,Front St & Maiden Ln,11,39,40.70530954,-74.00612572,In Service,1,27
353,S Portland Ave & Hanson Pl,0,27,40.68539567,-73.97431458,In Service,1,27
354,Emerson Pl & Myrtle Ave,10,23,40.69363137,-73.96223558,In Service,1,11
355,Bayard St & Baxter St,18,43,40.71602118,-73.99974372,In Service,1,24
356,Bialystoker Pl & Delancey St,9,23,40.71622644,-73.98261206,In Service,1,13
357,E 11 St & Broadway,12,27,40.73261787,-73.99158043,In Service,1,13
358,Christopher St & Greenwich St,9,50,40.73291553,-74.00711384,In Service,1,39
359,E 47 St & Park Ave,52,64,40.75510267,-73.97498696,In Service,1,8
360,William St & Pine St,29,39,40.70717936,-74.00887308,In Service,1,7
361,Allen St & Hester St,8,43,40.71605866,-73.99190759,In Service,1,24
362,Broadway & W 37 St,44,57,40.75172632,-73.98753523,In Service,1,12
363,West Thames St,18,49,40.70834698,-74.01713445,In Service,1,30
364,Lafayette Ave & Classon Ave,6,27,40.68900443,-73.96023854,In Service,1,21
365,Fulton St & Grand Ave,16,31,40.68223166,-73.9614583,In Service,1,13
366,Clinton Ave & Myrtle Ave,25,33,40.693261,-73.968896,In Service,1,4
368,Carmine St & 6 Ave,26,39,40.73038599,-74.00214988,In Service,1,11
369,Washington Pl & 6 Ave,13,35,40.73224119,-74.00026394,In Service,1,19
372,Franklin Ave & Myrtle Ave,11,27,40.69454609,-73.95801365,In Service,1,16
373,Willoughby Ave & Walworth St,5,19,40.69331716,-73.95381995,In Service,1,13
376,John St & William St,7,43,40.70862144,-74.00722156,In Service,1,32
379,W 31 St & 7 Ave,41,42,40.749156,-73.9916,In Service,1,0
380,W 4 St & 7 Ave S,15,42,40.73401143,-74.00293877,In Service,1,27
382,University Pl & E 14 St,13,36,40.73492695,-73.99200509,In Service,1,20
383,Greenwich Ave & Charles St,10,39,40.735238,-74.000271,In Service,1,27
385,E 55 St & 2 Ave,27,29,40.75797322,-73.96603308,In Service,1,2
386,Centre St & Worth St,21,43,40.71494807,-74.00234482,In Service,1,22
387,Centre St & Chambers St,9,39,40.71273266,-74.0046073,In Service,1,23
388,W 26 St & 10 Ave,10,35,40.74971775,-74.00295035,In Service,1,25
389,Broadway & Berry St,24,27,40.71044554,-73.96525063,In Service,1,3
390,Duffield St & Willoughby St,13,31,40.69221589,-73.9842844,In Service,1,18
391,Clark St & Henry St,4,31,40.69760127,-73.99344559,In Service,1,26
392,Jay St & Tech Pl,11,35,40.695065,-73.987167,In Service,1,17
393,E 5 St & Avenue C,13,37,40.72299208,-73.97995466,In Service,1,24
394,E 9 St & Avenue C,15,34,40.72521311,-73.97768752,In Service,1,17
396,Lefferts Pl & Franklin Ave,2,25,40.68034242,-73.95576894,In Service,1,23
397,Fulton St & Clermont Ave,8,27,40.68415748,-73.96922273,In Service,1,15
398,Atlantic Ave & Furman St,4,31,40.69165183,-73.9999786,In Service,1,25
399,Lafayette Ave & St James Pl,18,27,40.68851534,-73.9647628,In Service,1,8
400,Pitt St & Stanton St,3,15,40.71926081,-73.98178024,In Service,1,11
401,Allen St & Rivington St,14,42,40.72019576,-73.98997825,In Service,1,26
403,E 2 St & 2 Ave,8,31,40.72502876,-73.99069656,In Service,1,20
405,Washington St & Gansevoort St,17,51,40.739323,-74.008119,In Service,1,34
406,Hicks St & Montague St,27,34,40.69512845,-73.99595065,In Service,1,6
407,Henry St & Poplar St,26,37,40.700469,-73.991454,In Service,1,10
408,Market St & Cherry St,8,23,40.71076228,-73.99400398,In Service,1,13
409,DeKalb Ave & Skillman St,6,19,40.6906495,-73.95643107,In Service,1,13
410,Suffolk St & Stanton St,19,45,40.72066442,-73.98517977,In Service,1,26
411,E 6 St & Avenue D,24,31,40.72228087,-73.97668709,In Service,1,6
412,Forsyth St & Canal St,10,29,40.7158155,-73.99422366,In Service,1,16
414,Pearl St & Anchorage Pl,15,24,40.70281858,-73.98765762,In Service,1,7
415,Pearl St & Hanover Square,21,42,40.7047177,-74.00926027,In Service,1,20
416,Cumberland St & Lafayette Ave,21,31,40.68753406,-73.97265183,In Service,1,7
417,Barclay St & Church St,0,0,40.71291224,-74.01020234,Not In Service,3,0
418,Front St & Gold St,5,23,40.70224,-73.982578,In Service,1,17
419,Carlton Ave & Park Ave,7,23,40.69580705,-73.97355569,In Service,1,16
420,Clermont Ave & Lafayette Ave,23,23,40.68764484,-73.96968902,In Service,1,0
421,Clermont Ave & Park Ave,9,19,40.69573398,-73.97129668,In Service,1,9
422,W 59 St & 10 Ave,52,79,40.770513,-73.988038,In Service,1,25
423,W 54 St & 9 Ave,26,27,40.76584941,-73.98690506,In Service,1,0
426,West St & Chambers St,19,29,40.71754834,-74.01322069,In Service,1,3
427,Bus Slip & State St,14,47,40.701907,-74.013942,In Service,1,31
432,E 7 St & Avenue A,26,31,40.72621788,-73.98379855,In Service,1,3
435,W 21 St & 6 Ave,12,50,40.74173969,-73.99415556,In Service,1,35
436,Hancock St & Bedford Ave,12,27,40.68216564,-73.95399026,In Service,1,15
437,Macon St & Nostrand Ave,6,24,40.68098339,-73.95004798,In Service,1,16
439,E 4 St & 2 Ave,26,39,40.7262807,-73.98978041,In Service,1,11
440,E 45 St & 3 Ave,24,32,40.75255434,-73.97282625,In Service,1,6
441,E 52 St & 2 Ave,38,40,40.756014,-73.967416,In Service,1,1
442,W 27 St & 7 Ave,45,51,40.746647,-73.993915,In Service,1,5
443,Bedford Ave & S 9 St,11,23,40.70853074,-73.96408963,In Service,1,12
445,E 10 St & Avenue A,48,79,40.72740794,-73.98142006,In Service,1,30
446,W 24 St & 7 Ave,43,47,40.74487634,-73.99529885,In Service,1,4
447,8 Ave & W 52 St,30,31,40.76370739,-73.9851615,In Service,1,0
448,W 37 St & 10 Ave,13,31,40.75660359,-73.9979009,In Service,1,17
450,W 49 St & 8 Ave,64,67,40.76227205,-73.98788205,In Service,1,3
453,W 22 St & 8 Ave,35,66,40.74475148,-73.99915362,In Service,1,31
454,E 51 St & 1 Ave,34,35,40.75455731,-73.96592976,In Service,1,1
455,1 Ave & E 44 St,39,59,40.75001986,-73.96905301,In Service,1,19
456,E 53 St & Madison Ave,10,35,40.7597108,-73.97402311,In Service,1,23
458,11 Ave & W 27 St,0,31,40.751396,-74.005226,In Service,1,30
459,W 20 St & 11 Ave,11,49,40.746745,-74.007756,In Service,1,34
460,S 4 St & Wythe Ave,16,25,40.71285887,-73.96590294,In Service,1,9
461,E 20 St & 2 Ave,20,56,40.73587678,-73.98205027,In Service,1,34
462,W 22 St & 10 Ave,21,25,40.74691959,-74.00451887,In Service,1,4
465,Broadway & W 41 St,32,39,40.75513557,-73.98658032,In Service,1,7
466,W 25 St & 6 Ave,16,35,40.74395411,-73.99144871,In Service,1,18
467,Dean St & 4 Ave,9,34,40.68312489,-73.97895137,In Service,1,20
468,Broadway & W 56 St,59,65,40.7652654,-73.98192338,In Service,1,4
469,Broadway & W 53 St,54,57,40.76344058,-73.98268129,In Service,1,0
470,W 20 St & 8 Ave,38,72,40.74345335,-74.00004031,In Service,1,29
471,Grand St & Havemeyer St,15,31,40.71286844,-73.95698119,In Service,1,15
472,E 32 St & Park Ave,41,55,40.7457121,-73.98194829,In Service,1,14
473,Rivington St & Chrystie St,17,38,40.72110063,-73.9919254,In Service,1,20
474,5 Ave & E 29 St,21,56,40.7451677,-73.98683077,In Service,1,34
476,E 31 St & 3 Ave,38,47,40.74394314,-73.97966069,In Service,1,6
477,W 41 St & 8 Ave,55,58,40.75640548,-73.9900262,In Service,1,3
478,11 Ave & W 41 St,9,37,40.76030096,-73.99884222,In Service,1,28
479,9 Ave & W 45 St,19,31,40.76019252,-73.9912551,In Service,1,12
480,W 53 St & 10 Ave,12,27,40.76669671,-73.99061728,In Service,1,12
481,S 3 St & Bedford Ave,20,25,40.71260486,-73.96264403,In Service,1,4
482,W 15 St & 7 Ave,30,77,40.73935542,-73.99931783,In Service,1,45
483,E 12 St & 3 Ave,8,34,40.73223272,-73.98889957,In Service,1,26
484,W 44 St & 5 Ave,24,46,40.75500254,-73.98014437,In Service,1,22
485,W 37 St & 5 Ave,35,40,40.75038009,-73.98338988,In Service,1,4
486,Broadway & W 29 St,33,41,40.7462009,-73.98855723,In Service,1,8
487,E 20 St & FDR Drive,17,34,40.73314259,-73.97573881,In Service,1,17
490,8 Ave & W 33 St,63,66,40.751551,-73.993934,In Service,1,3
491,E 24 St & Park Ave S,3,51,40.74096374,-73.98602213,In Service,1,44
492,W 33 St & 7 Ave,66,68,40.75019995,-73.99093085,In Service,1,1
494,W 26 St & 8 Ave,51,66,40.74734825,-73.99723551,In Service,1,14
495,W 47 St & 10 Ave,9,39,40.76269882,-73.99301222,In Service,1,28
496,E 16 St & 5 Ave,22,47,40.73726186,-73.99238967,In Service,1,22
497,E 17 St & Broadway,30,66,40.73704984,-73.99009296,In Service,1,35
498,Broadway & W 32 St,26,30,40.74854862,-73.98808416,In Service,1,4
499,Broadway & W 60 St,10,36,40.76915505,-73.98191841,In Service,1,25
500,Broadway & W 51 St,39,52,40.76228826,-73.98336183,In Service,1,13
501,FDR Drive & E 35 St,73,79,40.744219,-73.97121214,In Service,1,5
502,Henry St & Grand St,17,30,40.714215,-73.981346,In Service,1,13
503,E 20 St & Park Ave,15,31,40.73827428,-73.98751968,In Service,1,15
504,1 Ave & E 16 St,35,53,40.73221853,-73.98165557,In Service,1,14
505,6 Ave & W 33 St,34,39,40.74901271,-73.98848395,In Service,1,5
507,E 25 St & 2 Ave,27,45,40.73912601,-73.97973776,In Service,1,17
508,W 46 St & 11 Ave,0,25,40.76341379,-73.99667444,In Service,1,24
509,9 Ave & W 22 St,24,63,40.7454973,-74.00197139,In Service,1,38
513,W 56 St & 10 Ave,18,27,40.768254,-73.988639,In Service,1,7
514,12 Ave & W 40 St,10,52,40.76087502,-74.00277668,In Service,1,39
515,W 43 St & 10 Ave,23,35,40.76009437,-73.99461843,In Service,1,12
516,E 47 St & 1 Ave,18,31,40.75206862,-73.96784384,In Service,1,11
517,Pershing Square South,62,69,40.751581,-73.97791,In Service,1,4
518,E 39 St & 2 Ave,36,39,40.74780373,-73.9734419,In Service,1,0
519,Pershing Square North,64,69,40.751873,-73.977706,In Service,1,2
520,W 52 St & 5 Ave,11,41,40.75992262,-73.97648516,In Service,1,27
522,E 51 St & Lexington Ave,26,51,40.75714758,-73.97207836,In Service,1,24
523,W 38 St & 8 Ave,38,51,40.75466591,-73.99138152,In Service,1,12
524,W 43 St & 6 Ave,39,57,40.75527307,-73.98316936,In Service,1,17
525,W 34 St & 11 Ave,1,56,40.75594159,-74.0021163,In Service,1,52
526,E 33 St & 5 Ave,22,40,40.74765947,-73.98490707,In Service,1,18
528,2 Ave & E 31 St,32,39,40.74290902,-73.97706058,In Service,1,5
529,W 42 St & 8 Ave,38,41,40.7575699,-73.99098507,In Service,1,3
530,11 Ave & W 59 St,6,24,40.77149671,-73.99046034,In Service,1,17
531,Forsyth St & Broome St,16,39,40.71893904,-73.99266288,In Service,1,23
532,S 5 Pl & S 5 St,23,43,40.710451,-73.960876,In Service,1,20
533,Broadway & W 38 St,28,46,40.75299641,-73.98721619,In Service,1,16
534,Water - Whitehall Plaza,8,31,40.70255065,-74.0127234,In Service,1,20
536,1 Ave & E 30 St,4,29,40.74144387,-73.97536082,In Service,1,23
539,Metropolitan Ave & Bedford Ave,9,31,40.71534825,-73.96024116,In Service,1,19
540,Lexington Ave & E 29 St,24,30,40.74311555,-73.98215353,In Service,1,6
545,E 23 St & 1 Ave,3,27,40.736502,-73.97809472,In Service,1,23
546,E 30 St & Park Ave S,25,45,40.74444921,-73.98303529,In Service,1,17
2000,Front St & Washington St,14,30,40.70255088,-73.98940236,In Service,1,15
2002,Wythe Ave & Metropolitan Ave,11,27,40.716887,-73.963198,In Service,1,16
2003,1 Ave & E 18 St,27,54,40.73381219,-73.98054421,In Service,1,25
2005,Railroad Ave & Kay Ave,4,12,40.70531194,-73.97100056,In Service,1,8
2006,Central Park S & 6 Ave,38,49,40.76590936,-73.97634151,In Service,1,10
2008,Little West St & 1 Pl,3,24,40.70569254,-74.01677685,In Service,1,19
2009,Catherine St & Monroe St,15,35,40.71117444,-73.99682619,In Service,1,19
2010,Grand St & Greene St,0,0,40.72165481,-74.00234737,Not In Service,3,0
2012,E 27 St & 1 Ave,1,36,40.739445,-73.976806,In Service,1,35
2017,E 43 St & 2 Ave,35,39,40.75022392,-73.97121414,In Service,1,4
2021,W 45 St & 8 Ave,40,43,40.75929124,-73.98859651,In Service,1,1
2022,E 60 St & York Ave,29,33,40.759107,-73.959223,In Service,1,4
2023,E 55 St & Lexington Ave,22,36,40.75968085,-73.97031366,In Service,1,11
3002,South End Ave & Liberty St,6,25,40.711512,-74.015756,In Service,1,19
3016,Kent Ave & N 7 St,27,54,40.72036775,-73.96165073,In Service,1,24
3041,Kingston Ave & Herkimer St,3,24,40.67890679,-73.94142771,In Service,1,19
3042,Fulton St & Utica Ave,4,19,40.6794268,-73.9298911,In Service,1,11
3043,Lewis Ave & Decatur St,14,19,40.6814598,-73.934903,In Service,1,5
3044,Albany Ave & Fulton St,5,27,40.6800105,-73.938475,In Service,1,16
3046,Marcus Garvey Blvd & Macon St,13,19,40.682601,-73.938037,In Service,1,6
3047,Halsey St & Tompkins Ave,17,21,40.6823687,-73.944118,In Service,1,4
3048,Putnam Ave & Nostrand Ave,9,19,40.68402,-73.94977,In Service,1,7
3049,Cambridge Pl & Gates Ave,4,18,40.68488,-73.96304,In Service,1,13
3050,Putnam Ave & Throop Ave,15,21,40.6851532,-73.94111,In Service,1,4
3052,Lewis Ave & Madison St,10,23,40.686312,-73.935775,In Service,1,13
3053,Marcy Ave & Lafayette Ave,13,23,40.6900815,-73.947915,In Service,1,10
3054,Greene Ave & Throop Ave,9,19,40.6894932,-73.942061,In Service,1,10
3055,Greene Ave & Nostrand Ave,10,23,40.6883337,-73.950916,In Service,1,12
3056,Kosciuszko St & Nostrand Ave,12,23,40.69072549,-73.95133465,In Service,1,8
3057,Kosciuszko St & Tompkins Ave,3,18,40.69128258,-73.9452416,In Service,1,14
3058,Lewis Ave & Kosciuszko St,12,24,40.69237074,-73.93705428,In Service,1,7
3059,Pulaski St & Marcus Garvey Blvd,13,19,40.6933982,-73.939877,In Service,1,6
3060,Willoughby Ave & Tompkins Ave,8,19,40.69425403,-73.94626915,In Service,1,9
3061,Throop Ave & Myrtle Ave,15,21,40.69622937,-73.94371094,In Service,1,6
3062,Myrtle Ave & Marcy Ave,0,23,40.69539817,-73.94954908,In Service,1,23
3063,Nostrand Ave & Myrtle Ave,2,20,40.69527008,-73.95238108,In Service,1,15
3064,Myrtle Ave & Lewis Ave,15,23,40.69681963,-73.93756926,In Service,1,8
3065,Union Ave & Wallabout St,1,31,40.70029511,-73.95032283,In Service,1,29
3066,Tompkins Ave & Hopkins St,2,19,40.69957608,-73.94708417,In Service,1,16
3067,Broadway & Whipple St,0,27,40.7016657,-73.9437303,In Service,1,22
3068,Humboldt St & Varet St,3,42,40.7031724,-73.940636,In Service,1,38
3069,Lorimer St & Broadway,16,29,40.70411791,-73.94818595,In Service,1,10
3070,McKibbin St & Manhattan Ave,5,23,40.70510918,-73.94407279,In Service,1,15
3071,Boerum St & Broadway,13,19,40.70538077,-73.94976519,In Service,1,6
3072,Leonard St & Boerum St,15,24,40.70583339,-73.94644578,In Service,1,9
3074,Montrose Ave & Bushwick Ave,25,42,40.70767788,-73.94016171,In Service,1,17
3075,Division Ave & Marcy Ave,28,33,40.70708701,-73.95796783,In Service,1,5
3076,Scholes St & Manhattan Ave,26,36,40.70870368,-73.9448625,In Service,1,10
3077,Stagg St & Union Ave,23,33,40.70877084,-73.95095259,In Service,1,10
3078,Broadway & Roebling St,18,27,40.70924826,-73.96063149,In Service,1,9
3080,S 4 St & Rodney St,13,21,40.70934,-73.95608,In Service,1,6
3081,Graham Ave & Grand St,19,29,40.711863,-73.944024,In Service,1,9
3082,Hope St & Union Ave,18,25,40.71167351,-73.95141312,In Service,1,7
3083,Bushwick Ave & Powers St,23,32,40.71247661,-73.94100005,In Service,1,9
3085,Roebling St & N 4 St,5,25,40.71469,-73.95739,In Service,1,17
3086,Graham Ave & Conselyea St,14,30,40.715143,-73.944507,In Service,1,15
3087,Metropolitan Ave & Meeker Ave,23,30,40.71413311,-73.95234386,In Service,1,7
3088,Union Ave & Jackson St,13,19,40.7160751,-73.952029,In Service,1,6
3092,Berry St & N 8 St,0,27,40.7190095,-73.95852515,In Service,1,26
3093,N 6 St & Bedford Ave,1,28,40.71745169,-73.95850939,In Service,1,25
3094,Graham Ave & Withers St,6,18,40.7169811,-73.94485918,In Service,1,12
3095,Graham Ave & Herbert St,12,26,40.71929301,-73.94500379,In Service,1,14
3096,Union Ave & N 12 St,27,39,40.71924,-73.95242,In Service,1,11
3100,Nassau Ave & Newell St,23,51,40.72481256,-73.94752622,In Service,1,28
3101,N 12 St & Bedford Ave,9,27,40.72079821,-73.95484712,In Service,1,17
3102,Driggs Ave & Lorimer St,21,27,40.72179134,-73.9504154,In Service,1,6
3105,N 15 St & Wythe Ave,5,24,40.724055,-73.955736,In Service,1,17
3106,Driggs Ave & N Henry St,19,22,40.72325,-73.94308,In Service,1,3
3107,Bedford Ave & Nassau Ave,2,39,40.72311651,-73.95212324,In Service,1,37
3108,Nassau Ave & Russell St,25,51,40.72557,-73.94434,In Service,1,26
3109,Banker St & Meserole Ave,10,31,40.72606,-73.95621,In Service,1,19
3110,Meserole Ave & Manhattan Ave,14,28,40.72708584,-73.95299117,In Service,1,12
3112,Milton St & Franklin St,22,33,40.72906,-73.95779,In Service,1,11
3113,Greenpoint Ave & Manhattan Ave,13,27,40.73026,-73.95394,In Service,1,8
3115,India St & Manhattan Ave,18,50,40.73232194,-73.9550858,In Service,1,29
3116,Huron St & Franklin St,8,35,40.73266,-73.95826,In Service,1,27
3117,Franklin St & Dupont St,21,27,40.73564,-73.95866,In Service,1,6
3118,McGuinness Blvd & Eagle St,21,42,40.73555,-73.95284,In Service,1,20
3119,Vernon Blvd & 50 Ave,24,45,40.74232744,-73.95411749,In Service,1,21
3121,Jackson Ave & 46 Rd,22,27,40.74524768,-73.94733276,In Service,1,5
3122,48 Ave & 5 St,20,31,40.74436329,-73.95587325,In Service,1,11
3123,31 St & Thomson Ave,19,27,40.74469738,-73.93540375,In Service,1,8
3124,46 Ave & 5 St,8,27,40.74731,-73.95451,In Service,1,17
3125,45 Rd & 11 St,20,23,40.74708586,-73.94977234,In Service,1,2
3126,44 Dr & Jackson Ave,27,34,40.74718234,-73.9432635,In Service,1,7
3127,9 St & 44 Rd,22,35,40.74966,-73.9521,In Service,1,12
3128,21 St & 43 Ave,12,23,40.75052534,-73.94594845,In Service,1,11
3129,Queens Plaza North & Crescent St,29,31,40.75110165,-73.94073717,In Service,1,2
3130,21 St & Queens Plaza North,13,31,40.75325964,-73.94335788,In Service,1,18
3131,E 68 St & 3 Ave,27,31,40.7671284,-73.96224618,In Service,1,4
3132,E 59 St & Madison Ave,16,35,40.76350532,-73.97109243,In Service,1,17
3134,3 Ave & E 62 St,46,51,40.76312584,-73.96526895,In Service,1,5
3135,E 75 St & 3 Ave,33,41,40.77112927,-73.95772297,In Service,1,8
3137,5 Ave & E 73 St,7,31,40.77282817,-73.96685276,In Service,1,23
3139,E 72 St & Park Ave,33,43,40.77118288,-73.96409422,In Service,1,9
3140,1 Ave & E 78 St,27,55,40.77140426,-73.9535166,In Service,1,27
3141,1 Ave & E 68 St,21,59,40.76500525,-73.95818491,In Service,1,38
3142,1 Ave & E 62 St,39,41,40.7612274,-73.96094022,In Service,1,2
3143,5 Ave & E 78 St,35,47,40.77632142,-73.96427393,In Service,1,12
3144,E 81 St & Park Ave,42,46,40.77677702,-73.9590097,In Service,1,4
3145,E 84 St & Park Ave,34,45,40.77862688,-73.95772073,In Service,1,11
3146,E 81 St & 3 Ave,37,47,40.77573034,-73.9567526,In Service,1,10
3147,E 85 St & 3 Ave,0,0,40.77801203,-73.95407149,Not In Service,3,0
3148,E 84 St & 1 Ave,17,31,40.77565541,-73.95068615,In Service,1,14
3150,E 85 St & York Ave,40,47,40.77536905,-73.94803392,In Service,1,5
3151,E 81 St & York Ave,34,43,40.7728384,-73.94989233,In Service,1,8
3152,3 Ave & E 71 St,39,42,40.76873687,-73.96119945,In Service,1,3
3154,E 77 St & 3 Ave,17,31,40.77314236,-73.95856158,In Service,1,13
3155,Lexington Ave & E 63 St,26,39,40.76440023,-73.96648977,In Service,1,11
3156,E 72 St & York Ave,7,37,40.76663814,-73.95348296,In Service,1,28
3157,East End Ave & E 86 St,15,27,40.77518615,-73.94446054,In Service,1,10
3158,W 63 St & Broadway,19,31,40.77163851,-73.98261428,In Service,1,12
3159,W 67 St & Broadway,12,31,40.77492513,-73.98266566,In Service,1,19
3160,Central Park West & W 76 St,19,39,40.77896784,-73.97374737,In Service,1,20
3161,W 76 St & Columbus Ave,26,59,40.78018397,-73.97728533,In Service,1,33
3162,W 78 St & Broadway,21,39,40.78339981,-73.98093133,In Service,1,18
3163,Central Park West & W 68 St,33,43,40.7734066,-73.97782542,In Service,1,6
3164,Columbus Ave & W 72 St,30,67,40.7770575,-73.97898475,In Service,1,36
3165,Central Park West & W 72 St,27,51,40.77579377,-73.97620574,In Service,1,23
3166,Riverside Dr & W 72 St,12,41,40.78057799,-73.98562431,In Service,1,28
3167,Amsterdam Ave & W 73 St,16,55,40.77966809,-73.98093045,In Service,1,22
3168,Central Park West & W 85 St,13,31,40.78472675,-73.96961715,In Service,1,18
3169,Riverside Dr & W 82 St,26,39,40.78720869,-73.98128127,In Service,1,13
3170,W 84 St & Columbus Ave,29,35,40.78499979,-73.97283406,In Service,1,5
3171,Amsterdam Ave & W 82 St,27,39,40.78524672,-73.97667321,In Service,1,12
3172,W 74 St & Columbus Ave,20,27,40.7785669,-73.97754961,In Service,1,6
3173,Riverside Blvd & W 67 St,17,39,40.77750703,-73.98888588,In Service,1,22
3175,W 70 St & Amsterdam Ave,8,31,40.77748046,-73.98288594,In Service,1,23
3177,W 84 St & Broadway,25,63,40.7867947,-73.977112,In Service,1,36
3178,Riverside Dr & W 78 St,23,39,40.78414472,-73.98362492,In Service,1,15
3179,Park Ave & Marcus Garvey Blvd,7,23,40.698617,-73.941342,In Service,1,15
3180,Brooklyn Bridge Park - Pier 2,0,0,40.69878,-73.99712,Not In Service,3,0
3183,Exchange Place,8,30,40.7162469,-74.0334588,In Service,1,21
3184,Paulus Hook,4,14,40.7141454,-74.0335519,In Service,1,9
3185,City Hall,12,22,40.7177325,-74.043845,In Service,1,8
3186,Grove St PATH,14,42,40.71958612,-74.04311746,In Service,1,27
3187,Warren St,18,22,40.7211236,-74.03805095,In Service,1,3
3191,Union St,10,18,40.7182113,-74.0836394,In Service,1,8
3192,Liberty Light Rail,13,22,40.7112423,-74.0557013,In Service,1,9
3193,Lincoln Park,4,18,40.7246051,-74.07840595,In Service,1,14
3194,McGinley Square,16,22,40.72533993,-74.06762213,In Service,1,6
3195,Sip Ave,15,38,40.73074263,-74.06378388,In Service,1,23
3196,Riverview Park,10,18,40.7443187,-74.0439909,In Service,1,7
3198,Heights Elevator,14,18,40.74871595,-74.0404433,In Service,1,4
3199,Newport Pkwy,5,14,40.7287448,-74.0321082,In Service,1,7
3201,Dey St,15,18,40.737711,-74.066921,In Service,1,3
3202,Newport PATH,7,18,40.7272235,-74.0337589,In Service,1,11
3203,Hamilton Park,17,26,40.72759597,-74.04424731,In Service,1,9
3205,JC Medical Center,6,22,40.71653978,-74.04963791,In Service,1,14
3206,Hilltop,21,26,40.7311689,-74.0575736,In Service,1,5
3207,Oakland Ave,21,26,40.7376037,-74.0524783,In Service,1,4
3209,Brunswick St,14,22,40.7241765,-74.0506564,In Service,1,8
3210,Pershing Field,16,18,40.74267714,-74.05178863,In Service,1,1
3211,Newark Ave,20,22,40.72152515,-74.04630454,In Service,1,2
3212,Christ Hospital,17,22,40.73478582,-74.05044364,In Service,1,4
3213,Van Vorst Park,15,22,40.71848892,-74.04772663,In Service,1,6
3214,Essex Light Rail,15,21,40.7127742,-74.0364857,In Service,1,5
3220,5 Corners Library,15,18,40.73496102,-74.05950308,In Service,1,3
3221,47 Ave & 31 St,22,27,40.743,-73.93561,In Service,1,5
3225,Baldwin at Montgomery,8,14,40.7236589,-74.0641943,In Service,1,5
3226,W 82 St & Central Park West,29,45,40.78275,-73.97137,In Service,1,16
3231,E 67 St & Park Ave,36,39,40.7678008,-73.96592081,In Service,1,2
3232,Bond St & Fulton St,15,31,40.68962189,-73.98304269,In Service,1,14
3235,E 41 St & Madison Ave,25,31,40.75216528,-73.97992194,In Service,1,6
3236,W 42 St & Dyer Ave,2,33,40.75898481,-73.99379969,In Service,1,31
3241,Monroe St & Tompkins Ave,14,19,40.686203,-73.944694,In Service,1,3
3242,Schermerhorn St & Court St,2,39,40.69102926,-73.99183363,In Service,1,35
3243,E 58 St & 1 Ave (NE Corner),28,29,40.75892386,-73.96226227,In Service,1,1
3244,University Pl & E 8 St,5,42,40.73143724,-73.99490342,In Service,1,37
3249,Verona Pl & Fulton St,4,19,40.68035608,-73.9476791,In Service,1,15
3256,Pier 40 - Hudson River Park,5,23,40.72771408,-74.01129574,In Service,1,14
3258,W 27 St & 10 Ave,17,37,40.75018156,-74.00218427,In Service,1,16
3259,9 Ave & W 28 St,15,27,40.74937024,-73.99923384,In Service,1,12
3260,Mercer St & Bleecker St,8,45,40.72706363,-73.99662137,In Service,1,33
3263,Cooper Square & Astor Pl,19,59,40.72951496,-73.9907527,In Service,1,37
3267,Morris Canal,7,14,40.71241882,-74.03852552,In Service,1,7
3268,Lafayette Park,4,14,40.71346383,-74.06285852,In Service,1,9
3269,Brunswick & 6th,9,14,40.72601173,-74.05038893,In Service,1,4
3270,Jersey & 6th St,7,14,40.72528911,-74.04557168,In Service,1,7
3272,Jersey & 3rd,9,14,40.72333159,-74.04595256,In Service,1,4
3273,Manila & 1st,14,18,40.72165072,-74.04288411,In Service,1,4
3275,Columbus Drive,9,14,40.7183552,-74.03891444,In Service,1,4
3276,Marin Light Rail,16,26,40.71458404,-74.04281706,In Service,1,9
3277,Communipaw & Berry Lane,13,14,40.71435837,-74.06661093,In Service,1,1
3278,Monmouth and 6th,8,14,40.72568548,-74.04879034,In Service,1,6
3279,Dixon Mills,11,18,40.72163014,-74.04996783,In Service,1,6
3280,Astor Place,10,14,40.7192822,-74.07126188,In Service,1,3
3281,Leonard Gordon Park,10,14,40.74590997,-74.05727148,In Service,1,4
3282,5 Ave & E 88 St,34,38,40.78307,-73.95939,In Service,1,2
3283,W 89 St & Columbus Ave,41,47,40.7882213,-73.97041561,In Service,1,6
3284,E 88 St & Park Ave,35,38,40.7814107,-73.95595908,In Service,1,1
3285,W 87 St & Amsterdam Ave,28,43,40.78839,-73.9747,In Service,1,14
3286,E 89 St & 3 Ave,21,23,40.7806284,-73.9521667,In Service,1,1
3288,E 88 St & 1 Ave,19,39,40.778301,-73.9488134,In Service,1,18
3289,W 90 St & Amsterdam Ave,30,32,40.79017948,-73.97288918,In Service,1,1
3290,E 89 St & York Ave,16,35,40.7779453,-73.946041,In Service,1,19
3292,5 Ave & E 93 St,40,43,40.7857851,-73.957481,In Service,1,2
3293,W 92 St & Broadway,21,24,40.7921,-73.9739,In Service,1,3
3294,E 91 St & Park Ave,37,38,40.7835016,-73.955327,In Service,1,1
3295,Central Park W & W 96 St,23,59,40.79127,-73.964839,In Service,1,35
3296,E 93 St & 2 Ave,13,42,40.78245418,-73.94891962,In Service,1,29
3297,6 St & 7 Ave,14,21,40.6686627,-73.97988067,In Service,1,7
3298,Warren St & Court St,0,23,40.686371,-73.99383324,In Service,1,22
3299,E 98 St & Park Ave,19,25,40.78813,-73.95206,In Service,1,6
3300,Prospect Park West & 8 St,21,25,40.66514682,-73.97637606,In Service,1,3
3301,Columbus Ave & W 95 St,27,39,40.7919557,-73.968087,In Service,1,11
3302,Columbus Ave & W 103 St,21,22,40.7969347,-73.96434123,In Service,1,1
3303,Butler St & Court St,7,25,40.6849894,-73.99440329,In Service,1,18
3304,6 Ave & 9 St,21,27,40.668127,-73.98377641,In Service,1,6
3305,E 91 St & 2 Ave,10,39,40.7811223,-73.94965589,In Service,1,27
3306,10 St & 7 Ave,5,23,40.6662078,-73.98199886,In Service,1,14
3307,West End Ave & W 94 St,19,31,40.7941654,-73.974124,In Service,1,12
3308,Kane St & Clinton St,9,27,40.6861758,-73.99645295,In Service,1,18
3309,E 97 St & 3 Ave,18,30,40.7859201,-73.94860294,In Service,1,12
3310,14 St & 7 Ave,17,24,40.663779,-73.98396846,In Service,1,4
3311,Columbia St & Kane St,3,21,40.68763155,-74.0016256,In Service,1,18
3312,1 Ave & E 94 St,13,39,40.7817212,-73.94594,In Service,1,25
3313,6 Ave & 12 St,13,29,40.6663181,-73.9854617,In Service,1,14
3314,W 95 St & Broadway,12,32,40.7937704,-73.971888,In Service,1,18
3315,Henry St & Degraw St,14,23,40.6847514,-73.99917254,In Service,1,9
3317,10 St & 5 Ave,3,24,40.6686273,-73.98700053,In Service,1,21
3318,2 Ave & E 96 St,0,39,40.7839636,-73.9471673,In Service,1,39
3319,14 St & 5 Ave,1,21,40.666287,-73.98895053,In Service,1,19
3320,Central Park West & W 100 St,37,49,40.79406661,-73.96286845,In Service,1,12
3321,Clinton St & Union St,14,25,40.6831164,-73.99785267,In Service,1,10
3322,12 St & 4 Ave,0,25,40.668603,-73.9904394,In Service,1,24
3323,W 106 St & Central Park West,29,59,40.7981856,-73.9605909,In Service,1,30
3324,3 Ave & 14 St,0,25,40.6685455,-73.99333264,In Service,1,25
3326,Clinton St & Centre St,8,21,40.67434,-74.00194698,In Service,1,13
3327,3 Ave & E 100 St,15,27,40.7877214,-73.94728331,In Service,1,12
3328,W 100 St & Manhattan Ave,34,39,40.795,-73.9645,In Service,1,5
3329,Degraw St & Smith St,19,27,40.6829151,-73.99318208,In Service,1,8
3330,Henry St & Bay St,3,19,40.6725058,-74.00494695,In Service,1,16
3331,Riverside Dr & W 104 St,30,39,40.8013434,-73.97114574,In Service,1,9
3332,Degraw St & Hoyt St,3,19,40.68199044,-73.99079025,In Service,1,16
3333,Columbia St & Lorraine St,1,21,40.6747055,-74.0075572,In Service,1,20
3335,Union St & 4 Ave,0,28,40.6772744,-73.98282002,In Service,1,28
3336,E 97 St & Madison Ave,35,41,40.787801,-73.953559,In Service,1,6
3337,Dwight St & Van Dyke St,0,23,40.67363551,-74.01195556,In Service,1,22
3338,2 Ave & E 99 St,0,31,40.7862586,-73.94552579,In Service,1,30
3339,Berkeley Pl & 6 Ave,6,23,40.6765304,-73.97846879,In Service,1,17
3340,Wolcott St & Dwight St,2,21,40.6753274,-74.0100698,In Service,1,19
3341,Central Park West & W 102 St,31,41,40.795346,-73.96186,In Service,1,10
3342,Pioneer St & Richards St,0,23,40.6777748,-74.0094613,In Service,1,22
3343,W 107 St & Columbus Ave,18,23,40.7997568,-73.96211287,In Service,1,4
3344,Pioneer St & Van Brunt St,1,19,40.679043,-74.011169,In Service,1,15
3345,Madison Ave & E 99 St,23,35,40.78948542,-73.95242929,In Service,1,12
3346,Berkeley Pl & 7 Ave,2,29,40.67514684,-73.97523209,In Service,1,24
3347,Van Brunt St & Wolcott St,1,21,40.6773429,-74.01275056,In Service,1,17
3348,Coffey St & Conover St,0,19,40.677236,-74.015665,In Service,1,19
3349,Grand Army Plaza & Plaza St West,5,30,40.6729679,-73.97087984,In Service,1,23
3350,W 100 St & Broadway,31,39,40.7973721,-73.97041192,In Service,1,8
3351,E 102 St & 1 Ave,10,25,40.7869946,-73.94164802,In Service,1,15
3352,Sigourney St & Columbia St,2,21,40.67267243,-74.00879525,In Service,1,19
3354,3 St & Prospect Park West,29,31,40.668132,-73.97363831,In Service,1,0
3355,E 66 St & Madison Ave,21,25,40.76800889,-73.96845281,In Service,1,2
3356,Amsterdam Ave & W 66 St,17,21,40.7746671,-73.98470567,In Service,1,4
3357,W 106 St & Amsterdam Ave,24,35,40.8008363,-73.96644925,In Service,1,11
3358,Garfield Pl & 8 Ave,20,25,40.6711978,-73.97484126,In Service,1,5
3359,E 68 St & Madison Ave,32,35,40.7691572,-73.96703464,In Service,1,3
3360,Amsterdam Ave & W 79 St,10,25,40.7829391,-73.9786517,In Service,1,15
3361,Carroll St & 6 Ave,9,23,40.6740886,-73.9787282,In Service,1,10
3362,Madison Ave & E 82 St,34,34,40.7781314,-73.96069399,In Service,1,0
3363,E 102 St & Park Ave,10,33,40.7904828,-73.95033068,In Service,1,23
3364,Carroll St & 5 Ave,2,27,40.6751622,-73.9814832,In Service,1,25
3365,3 St & 7 Ave,1,27,40.6703837,-73.97839676,In Service,1,22
3366,West End Ave & W 107 St,27,31,40.8021174,-73.96818053,In Service,1,4
3367,5 Ave & E 103 St,15,39,40.7922553,-73.95249933,In Service,1,23
3368,5 Ave & 3 St,1,30,40.6728155,-73.98352355,In Service,1,24
3369,E 82 St & East End Ave,13,29,40.7724607,-73.9468208,In Service,1,16
3370,E 78 St & 2 Ave,13,25,40.7727966,-73.95577801,In Service,1,11
3371,4 Ave & 2 St,2,27,40.67461342,-73.98501143,In Service,1,24
3372,E 74 St & 1 Ave,7,39,40.7689738,-73.95482273,In Service,1,30
3373,3 St & 3 Ave,1,27,40.6750705,-73.98775226,In Service,1,24
3374,Central Park North & Adam Clayton Powell Blvd,11,36,40.799484,-73.955613,In Service,1,24
3375,3 Ave & E 72 St,35,35,40.7699426,-73.96060712,In Service,1,0
3376,E 65 St & 2 Ave,38,39,40.76471852,-73.9622207,In Service,1,0
3377,Carroll St & Bond St,3,25,40.6786115,-73.99037292,In Service,1,21
3378,E 76 St & Park Ave,26,28,40.773763,-73.96222088,In Service,1,2
3379,E 103 St & Lexington Ave,0,35,40.7903051,-73.94755757,In Service,1,34
3381,3 St & Hoyt St,4,21,40.6777287,-73.99364123,In Service,1,14
3382,Carroll St & Smith St,1,31,40.680611,-73.99475825,In Service,1,30
3383,Cathedral Pkwy & Broadway,12,25,40.804213,-73.96699104,In Service,1,11
3384,Smith St & 3 St,4,25,40.6787242,-73.99599099,In Service,1,21
3386,1 Pl & Clinton St,24,27,40.6809591,-73.99905709,In Service,1,2
3387,E 106 St & Madison Ave,3,25,40.7934337,-73.94945003,In Service,1,22
3388,President St & Henry St,3,25,40.6828003,-73.99990419,In Service,1,19
3389,Carroll St & Columbia St,5,28,40.6830456,-74.00348559,In Service,1,23
3390,E 109 St & 3 Ave,0,24,40.79329668,-73.9432083,In Service,1,24
3391,E 106 St & 1 Ave,3,25,40.7892529,-73.93956237,In Service,1,22
3392,Commerce St & Van Brunt St,0,19,40.6812117,-74.00860912,In Service,1,19
3393,Richards St & Delavan St,1,19,40.6794327,-74.00785041,In Service,1,17
3394,Columbia St & W 9 St,4,21,40.6769993,-74.00647134,In Service,1,16
3395,Henry St & W 9 St,1,19,40.6763744,-74.00324957,In Service,1,18
3396,Clinton St & 4 Place,7,25,40.6783563,-74.00014502,In Service,1,18
3397,Court St & Nelson St,2,25,40.6763947,-73.99869893,In Service,1,21
3398,Smith St & 9 St,1,23,40.6746957,-73.99785768,In Service,1,18
3399,7 St & 3 Ave,1,24,40.67260298,-73.98983002,In Service,1,20
3400,E 110 St & Madison Ave,7,24,40.7961535,-73.94782145,In Service,1,16
3401,2 Ave & 9 St,1,19,40.6724811,-73.99331394,In Service,1,18
3402,Court St & State St,1,23,40.6902375,-73.99203074,In Service,1,21
3403,4 Ave & 9 St,0,31,40.6705135,-73.98876585,In Service,1,27
3404,7 St & 5 Ave,3,27,40.6704922,-73.98541675,In Service,1,24
3405,5 St & 6 Ave,6,23,40.6704836,-73.98208968,In Service,1,17
3407,Union St & Nevins St,0,23,40.679098,-73.98765475,In Service,1,22
3408,Congress St & Clinton St,5,27,40.6881529,-73.99520919,In Service,1,21
3409,Bergen St & Smith St,4,35,40.6867443,-73.99063168,In Service,1,31
3410,Dean St & Hoyt St,3,31,40.6864442,-73.98759104,In Service,1,24
3411,Bond St & Bergen St,4,27,40.6849668,-73.98620772,In Service,1,23
3412,Pacific St & Nevins St,0,18,40.6853761,-73.98302136,In Service,1,18
3413,Wyckoff St & 3 Ave,7,22,40.6827549,-73.98258555,In Service,1,15
3414,Bergen St & Flatbush Ave,0,33,40.68094472,-73.97567332,In Service,1,33
3415,Prospect Pl & 6 Ave,2,25,40.6793307,-73.97519523,In Service,1,23
3416,7 Ave & Park Pl,0,25,40.6776147,-73.97324283,In Service,1,24
3417,Baltic St & 5 Ave,6,27,40.6795766,-73.97854971,In Service,1,21
3418,Plaza St West & Flatbush Ave,1,33,40.6750207,-73.97111473,In Service,1,31
3419,Douglass St & 4 Ave,2,27,40.6792788,-73.98154004,In Service,1,25
3420,Douglass St & 3 Ave,6,21,40.6802133,-73.98432695,In Service,1,15
3422,Columbia St & Degraw St,6,21,40.6859296,-74.00242364,In Service,1,14
3423,West Drive & Prospect Park West,7,29,40.66106337,-73.97945255,In Service,1,22
3424,E 106 St & Lexington Ave,3,27,40.791976,-73.945993,In Service,1,22
3425,2 Ave & E 104 St,2,33,40.7892105,-73.94370784,In Service,1,30
3427,Lafayette St & Jersey St,18,40,40.72430527,-73.99600983,In Service,1,18
3429,Hanson Pl & Ashland Pl,16,39,40.68506807,-73.9779076,In Service,1,22
3430,Richardson St & N Henry St,13,25,40.71907891,-73.9422369,In Service,1,11
3431,E 35 St & 3 Ave,1,3,40.746524,-73.977885,Not In Service,3,0
3434,W 88 St & West End Ave,12,35,40.79025417,-73.9771834,In Service,1,23
3435,Grand St & Elizabeth St,37,45,40.718822,-73.99596,In Service,1,3
3437,Riverside Dr & W 91 St,34,39,40.79313481,-73.97700369,In Service,1,5
3440,Fulton St & Adams St,24,43,40.69241829,-73.98949474,In Service,1,16
3449,Eckford St & Engert Ave,10,18,40.72146256,-73.94800901,In Service,1,7
3452,Bayard St & Leonard St,30,43,40.71915572,-73.94885391,In Service,1,11
3453,Devoe St & Lorimer St,8,19,40.71335226,-73.94910336,In Service,1,10
3454,Leonard St & Maujer St,19,24,40.71036854,-73.94705951,In Service,1,3
3456,Jackson St & Leonard St,17,22,40.71638032,-73.94821286,In Service,1,5
3458,W 55 St & 6 Ave,9,40,40.76309387,-73.97835016,In Service,1,31
3459,E 53 St & 3 Ave,23,34,40.75763228,-73.96930575,In Service,1,10
3461,Murray St & Greenwich St,3,33,40.71485151,-74.01122332,In Service,1,30
3463,E 16 St & Irving Pl,17,37,40.73536706,-73.98797393,In Service,1,20
3466,W 45 St & 6 Ave,4,34,40.75668721,-73.98257732,In Service,1,28
3467,W Broadway & Spring Street,3,42,40.72494672,-74.00165856,In Service,1,37
3469,India St & West St,0,23,40.73181402,-73.95995021,In Service,1,23
3472,W 15 St & 10 Ave,13,39,40.74275383,-74.00747359,In Service,1,25
3477,39 St & 2 Ave - Citi Bike HQ at Industry City,0,33,40.65539977,-74.01062787,In Service,1,32
3478,2 Ave & 36 St - Citi Bike HQ at Industry City,35,43,40.65708867,-74.00870204,In Service,1,8
3481,York St,16,22,40.71649,-74.04105,In Service,1,6
3483,Montgomery St,4,14,40.71942,-74.05099,In Service,1,10
3486,Schermerhorn St & Bond St,12,30,40.68841743,-73.98451656,In Service,1,16
3490,E 116 St & 2 Ave,4,31,40.796879,-73.937261,In Service,1,27
3491,E 118 St & 1 Ave,8,24,40.79747,-73.93504,In Service,1,15
3492,E 118 St & Park Ave,23,27,40.8005385,-73.9419949,In Service,1,4
3493,E 118 St & 3 Ave,7,31,40.799139,-73.9389152,In Service,1,23
3494,E 115 St & Lexington Ave,4,25,40.797911,-73.9423,In Service,1,20
3495,E 114 St & 1 Ave,0,26,40.7945663,-73.9362541,In Service,1,23
3496,1 Ave & E 110 St,2,25,40.7923272,-73.9383,In Service,1,23
3497,Pleasant Ave & E 116 St,2,23,40.7949879,-73.9333349,In Service,1,21
3498,Pleasant Ave & E 120 St,2,21,40.7974772,-73.9311847,In Service,1,18
3499,2 Ave & E 122 St,23,25,40.8006721,-73.9349,In Service,1,1
3500,E 115 St & Madison Ave,7,31,40.7989445,-73.944846,In Service,1,24
3501,E 118 St & Madison Ave,25,29,40.8014866,-73.9442507,In Service,1,3
3502,Lexington Ave & E 111 St,1,29,40.7954121,-73.9441232,In Service,1,28
3503,Madison Ave & E 120 St,7,30,40.80295,-73.942954,In Service,1,22
3504,E 123 St & Lexington Ave,1,27,40.8029263,-73.9379,In Service,1,26
3505,Lexington Ave & E 127 St,25,33,40.805726,-73.936322,In Service,1,8
3506,Lexington Ave & E 120 St,24,29,40.8013066,-73.9398167,In Service,1,5
3507,Park Ave & E 124 St,19,36,40.8045555,-73.9396861,In Service,1,17
3508,St Nicholas Ave & Manhattan Ave,9,31,40.809725,-73.953149,In Service,1,22
3509,Lenox Ave & W 115 St,4,31,40.8011939,-73.9500739,In Service,1,27
3510,Adam Clayton Powell Blvd & W 123 St,22,31,40.8078316,-73.949373,In Service,1,9
3511,Adam Clayton Powell Blvd & W 115 St,5,22,40.802535,-73.9532423,In Service,1,14
3512,27 Ave & 4 St,13,19,40.7747175,-73.9337894,In Service,1,6
3513,21 St & Hoyt Ave S,14,21,40.774645,-73.923706,In Service,1,6
3514,Astoria Park S & Shore Blvd,17,23,40.7767,-73.927631,In Service,1,6
3515,24 Ave & 26 St,7,19,40.774591,-73.918544,In Service,1,12
3516,31 St & Astoria Blvd,30,31,40.7699176,-73.9184057,In Service,1,1
3517,31 St & Hoyt Ave N,31,35,40.7711528,-73.9170074,In Service,1,4
3518,Lenox Ave & W 126 St,1,34,40.808442,-73.9452087,In Service,1,33
3520,Adam Clayton Powell Blvd & W 118 St,8,27,40.804372,-73.951475,In Service,1,18
3521,Lenox Ave & W 111 St,23,36,40.7987859,-73.9523,In Service,1,13
3522,37 St & 24 Ave,17,19,40.7701477,-73.9120938,In Service,1,2
3523,24 Ave & 29 St,24,25,40.7729,-73.916142,In Service,1,0
3524,19 St & 24 Ave,21,23,40.7774552,-73.9225403,In Service,1,2
3525,23 Ave & 27 St,20,21,40.776165,-73.9153175,In Service,1,1
3526,31 St & 23 Ave,16,27,40.7747878,-73.9125551,In Service,1,11
3527,5 Ave & E 126 St,19,27,40.80698,-73.941747,In Service,1,8
3528,Steinway St & 23 Ave,18,21,40.7713937,-73.9077436,In Service,1,3
3529,Lenox Ave & W 130 St,3,25,40.8107922,-73.9430681,In Service,1,21
3530,Crescent St & Ditmars Blvd,18,19,40.7787185,-73.9145645,In Service,1,0
3531,Frederick Douglass Blvd & W 129 St,10,27,40.8125511,-73.9492286,In Service,1,17
3532,Ditmars Blvd & 19 St,24,27,40.78145,-73.9183302,In Service,1,2
3533,St. Nicholas Ave & W 126 St,2,34,40.8114323,-73.9518776,In Service,1,32
3534,Frederick Douglass Blvd & W 117 St,7,39,40.805159,-73.954692,In Service,1,29
3535,Mt Morris Park W & W 120 St,11,27,40.804038,-73.945925,In Service,1,16
3536,W 116 St & Broadway,38,43,40.8082,-73.9641,In Service,1,5
3537,Carlton Ave & Dean St,7,29,40.6809741,-73.9710097,In Service,1,19
3538,W 110 St & Amsterdam Ave,26,45,40.802692,-73.96295,Not In Service,3,19
3539,W 116 St & Amsterdam Ave,38,43,40.8067581,-73.9607082,In Service,1,5
3540,Morningside Ave & W 123 St,5,35,40.81,-73.9551508,In Service,1,30
3541,Amsterdam Ave & W 125 St,13,39,40.813358,-73.956461,In Service,1,26
3542,Amsterdam Ave & W 119 St,27,29,40.8086249,-73.9596214,In Service,1,2
3543,Morningside Dr & Amsterdam Ave,33,35,40.81028506,-73.95736456,In Service,1,1
3544,Underhill Ave & Pacific St,5,27,40.6804836,-73.9646795,In Service,1,22
3545,Broadway & W 122 St,27,33,40.8120562,-73.9612547,In Service,1,6
3546,Pacific St & Classon Ave,13,21,40.6791944,-73.9587903,In Service,1,8
3547,Broadway & Moylan Pl,27,41,40.8143256,-73.9590255,In Service,1,14
3549,Grand Ave & Bergen St,13,25,40.678045,-73.962408,In Service,1,11
3551,3 Ave & E 112 St,0,23,40.795508,-73.941606,In Service,1,23
3552,W 113 St & Broadway,32,39,40.805973,-73.964928,In Service,1,6
3553,Frederick Douglass Blvd & W 112 St,18,37,40.801694,-73.957145,In Service,1,18
3554,Vernon Blvd & 41 Rd,18,27,40.7552433,-73.9485678,In Service,1,9
3555,28 St & 41 Ave,22,27,40.751047,-73.93797,In Service,1,5
3556,24 St & 41 Ave,16,19,40.7527085,-73.9397405,In Service,1,1
3557,40 Ave & 9 St,7,19,40.75742,-73.945133,In Service,1,12
3558,Bergen St & Vanderbilt Ave,24,27,40.6794388,-73.9680438,In Service,1,3
3559,21 St & 38 Ave,6,19,40.7576314,-73.9391224,In Service,1,13
3560,28 St & 38 Ave,13,19,40.754876,-73.934326,In Service,1,4
3561,37 Ave & 35 St,11,26,40.7531106,-73.9279917,In Service,1,14
3562,Classon Ave & St Marks Ave,11,27,40.6765198,-73.9596082,In Service,1,16
3563,28 St & 36 Ave,29,29,40.757186,-73.932719,In Service,1,0
3564,21 St & 36 Ave,17,19,40.7601853,-73.9362726,In Service,1,2
3565,36 Ave & 10 St,14,19,40.7614376,-73.9411265,In Service,1,5
3566,Crescent St & 35 Ave,18,25,40.7596276,-73.9321455,In Service,1,7
3567,11 St & 35 Ave,13,19,40.7627442,-73.9391141,In Service,1,6
3568,34 St & 35 Ave,16,21,40.7569332,-73.9262231,In Service,1,5
3569,Franklin Ave & St Marks Ave,21,29,40.6758324,-73.9561677,In Service,1,4
3570,35 Ave & 37 St,23,31,40.7557327,-73.9236611,In Service,1,8
3571,Bedford Ave & Bergen St,12,24,40.676368,-73.952918,In Service,1,12
3572,34 Ave & 38 St,20,33,40.756913,-73.921631,In Service,1,13
3573,35 St & 34 Ave,23,25,40.7580583,-73.9242751,In Service,1,2
3574,Prospect Pl & Underhill Ave,21,23,40.6769694,-73.96579,In Service,1,2
3575,Crescent St & 34 Ave,19,19,40.76108,-73.930562,In Service,1,0
3576,Park Pl & Vanderbilt Ave,20,27,40.6767,-73.969024,In Service,1,7
3577,34 Ave & 21 St,7,23,40.7628138,-73.9342862,In Service,1,16
3578,Park Pl & Franklin Ave,13,21,40.6741806,-73.9564947,In Service,1,5
3579,Sterling Pl & Bedford Ave,17,25,40.672695,-73.954131,In Service,1,5
3580,St Johns Pl & Washington Ave,27,30,40.6737236,-73.9631611,In Service,1,3
3581,Underhill Ave & Lincoln Pl,10,27,40.6740123,-73.9671457,In Service,1,15
3582,Lincoln Pl & Classon Ave,24,28,40.6721683,-73.9609,In Service,1,1
3583,Eastern Pkwy & Washington Ave,16,31,40.6716493,-73.9631145,In Service,1,14
3584,Eastern Pkwy & Franklin Ave,18,42,40.6707767,-73.9576801,In Service,1,24
3585,Union St & Bedford Ave,19,24,40.6691783,-73.9554162,In Service,1,5
3586,34 Ave & 13 St,15,19,40.7638753,-73.9364848,In Service,1,3
3587,Carroll St & Washington Ave,4,27,40.6686744,-73.9618148,In Service,1,22
3588,Vernon Blvd & 10 St,11,21,40.7671863,-73.9373554,In Service,1,10
3589,Broadway & 12 St,7,19,40.7668,-73.9347774,In Service,1,11
3590,Carroll St & Franklin Ave,0,19,40.6679411,-73.9588,In Service,1,18
3591,21 St & 31 Dr,16,21,40.7659,-73.930819,In Service,1,4
3592,Crescent St & Broadway,19,19,40.7633589,-73.9286471,In Service,1,0
3593,31 St & Broadway,27,35,40.761584,-73.925921,In Service,1,7
3595,35 St & Broadway,17,18,40.760339,-73.9222427,In Service,1,0
3596,Sullivan Pl & Bedford Ave,1,19,40.6642406,-73.9574686,In Service,1,18
3597,43 St & Broadway,17,25,40.7577284,-73.9166368,In Service,1,7
3598,Newton Rd & 44 St,13,19,40.7595701,-73.9142678,In Service,1,6
3599,Franklin Ave & Empire Blvd,1,27,40.66314,-73.9605695,In Service,1,26
3601,Sterling St & Bedford Ave,2,19,40.6627059,-73.9569115,In Service,1,17
3602,31 Ave & 34 St,17,23,40.763154,-73.920827,In Service,1,6
3603,31 Ave & 30 St,16,21,40.7647,-73.9240312,In Service,1,4
3604,Rogers Ave & Sterling St,3,17,40.6630619,-73.9538746,In Service,1,14
3605,31 Ave & Crescent St,15,21,40.7658346,-73.9265474,In Service,1,5
3664,North Moore St & Greenwich St,20,30,40.72019521,-74.01030064,In Service,1,7
3606,49 Ave & 21 St,15,21,40.74252,-73.948852,In Service,1,6
3607,31 Ave & 14 St,10,19,40.7682,-73.9322662,In Service,1,9
3608,5 St & 51 Ave,16,21,40.7423737,-73.9566,In Service,1,5
3609,Vernon Blvd & 31 Ave,2,23,40.7692475,-73.9354504,In Service,1,21
3610,Vernon Blvd & 30 Rd,4,27,40.770845,-73.934171,In Service,1,23
3611,Vernon Blvd & 47 Rd,16,31,40.7449067,-73.9534573,In Service,1,13
3612,30 Ave & 21 St,9,15,40.7703743,-73.9286078,In Service,1,6
3613,Center Blvd & 48 Ave,14,27,40.745038,-73.957539,In Service,1,13
3614,Crescent St & 30 Ave,19,23,40.768692,-73.9249574,In Service,1,4
3615,44 Dr & 21 St,12,21,40.748,-73.9460927,In Service,1,8
3616,Steinway St & 28 Ave,19,25,40.7656251,-73.9136695,In Service,1,6
3617,28 Ave & 35 St,26,27,40.7671,-73.9169858,In Service,1,1
3618,27 St & Hunter St,22,25,40.7485,-73.941275,In Service,1,2
3619,Newtown Ave & 23 St,14,19,40.7713615,-73.9246145,In Service,1,5
3620,11 St & 43 Ave,7,23,40.7519071,-73.9479119,In Service,1,16
3621,27 Ave & 9 St,15,19,40.7739825,-73.9309134,In Service,1,4
3622,E 128 St & Madison Ave,5,15,40.80756,-73.939182,In Service,1,10
3623,W 120 St & Claremont Ave,38,39,40.8109494,-73.9634,In Service,1,1
3628,Lenox Ave & W 117 St,2,31,40.8025566,-73.9490782,In Service,1,29
3629,Adam Clayton Powell Blvd & W 126 St,13,33,40.80949535,-73.94776493,In Service,1,17
3630,Frederick Douglass Blvd & W 115 St,4,33,40.8038654,-73.9559308,In Service,1,29
3631,Crown St & Bedford Ave,6,27,40.666563,-73.956741,In Service,1,21
3637,Fulton St & Waverly Ave,24,31,40.68323865,-73.96599591,In Service,1,5
3638,Washington St,3,18,40.7242941,-74.0354826,In Service,1,15
3639,Harborside,18,30,40.7192517,-74.034234,In Service,1,11
3640,Journal Square,7,18,40.73367,-74.0625,In Service,1,11
3641,Broadway & W 25 St,16,54,40.74286877,-73.98918629,In Service,1,36
3646,35 Ave & 10 St,25,26,40.76315482,-73.9398551,In Service,1,1
3647,48 Ave & 30 Pl,9,23,40.74128309,-73.93725872,In Service,1,12
3648,Flushing Ave & Vanderbilt Ave,1,25,40.69795032,-73.9707756,In Service,1,21
3649,W 129 St & Convent Ave,25,30,40.81439444,-73.95324737,In Service,1,5
3654,31 St & Northern Blvd,30,35,40.75186951,-73.9334929,In Service,1,5
3656,E 2 St & Avenue A,10,46,40.72307749,-73.98583621,In Service,1,32
3658,W 18 St & 9 Ave,1,27,40.74353373,-74.00367558,In Service,1,22
3659,W 17 St & 9 Ave,0,0,40.74294892,-74.00413692,Not In Service,3,0
3660,W 16 St & 8 Ave,23,39,40.74102151,-74.00138497,In Service,1,14
3661,Montgomery St & Franklin Ave,4,19,40.66643931,-73.96055639,In Service,1,15
3662,31 Ave & Steinway St,19,21,40.7612939,-73.91691685,In Service,1,0
3668,Leonard St & Nassau Ave,0,26,40.72395678,-73.94984365,In Service,1,24
3671,E 81 St & 2 Ave,36,37,40.77477945,-73.95427465,In Service,1,1
3673,Dean St & Franklin Ave,14,21,40.67759207,-73.95563722,In Service,1,6
3674,Jay St & York St,8,27,40.70140317,-73.9867267,In Service,1,19
3675,3 Ave & E 95 St,29,31,40.7845968,-73.94968539,In Service,1,2
3676,Van Brunt St & Van Dyke St,3,24,40.67583294,-74.01472628,In Service,1,20
3677,Glenwood Ave,17,18,40.72755147,-74.07106072,In Service,1,0
3678,Fairmount Ave,14,18,40.72572614,-74.07195926,In Service,1,3
3679,Bergen Ave,11,14,40.72210379,-74.071455,In Service,1,3
3680,E 43 St & 5 Ave,50,55,40.75412081,-73.98025185,In Service,1,5
3681,Grand St,17,18,40.71517768,-74.03768331,In Service,1,1
3684,W 12 St & W 4 St,10,43,40.73756121,-74.00398269,In Service,1,29
3686,Gansevoort St & Hudson St,8,39,40.7394482,-74.00507033,In Service,1,29
3687,E 33 St & 1 Ave,39,59,40.74322681,-73.97449784,In Service,1,18
3689,W 104 St & Amsterdam Ave,31,47,40.79904139,-73.9664948,In Service,1,16
3690,Park Pl & Church St,19,36,40.71334184,-74.00935516,In Service,1,17
3691,28 Ave & 44 St,19,19,40.76408932,-73.91065121,In Service,1,0
3692,5 St & Market St,8,15,40.69999748,-73.97440128,In Service,1,7
3693,N 11 St & Kent Ave,12,27,40.72248189,-73.95921931,In Service,1,13
3694,Jackson Square,11,18,40.71113,-74.0789,In Service,1,7
3697,W 64 St & Thelonious Monk Circle,16,43,40.77515953,-73.98918696,In Service,1,26
3699,W 50 St & 9 Ave,27,30,40.76360468,-73.98917958,In Service,1,2
3701,Cliff St & Fulton St,2,37,40.70831794,-74.00504082,In Service,1,35
3704,47 Ave & Skillman Ave,10,19,40.74375241,-73.94176483,In Service,1,9
3707,Lexington Ave & E 26 St,40,55,40.741459,-73.983293,In Service,1,15
3708,W 13 St & 5 Ave,12,29,40.735445,-73.99431,In Service,1,16
3709,W 15 St & 6 Ave,25,51,40.73804614,-73.99642959,In Service,1,24
3711,E 13 St & Avenue A,31,47,40.72966729,-73.98067966,In Service,1,15
3712,W 35 St & Dyer Ave,8,41,40.75469175,-73.99740189,In Service,1,33
3714,Division Av & Hooper St,33,61,40.70684203,-73.9544354,In Service,1,25
3715,Driggs Ave & N 9 St,11,31,40.71816969,-73.95520136,In Service,1,20
3716,40 Ave & Crescent St,19,23,40.7535992,-73.93795609,In Service,1,4
3718,E 11 St & Avenue B,27,46,40.72746421,-73.97950418,In Service,1,17
3720,Wyckoff St & Bond St,0,23,40.68461654,-73.98721285,In Service,1,23
3721,31 St & Newtown Ave,27,35,40.76754878,-73.92093346,In Service,1,8
3723,Cadman Plaza E & Johnson St,24,30,40.69531728,-73.99015725,In Service,1,6
3724,7 Ave & Central Park South,28,39,40.76674056,-73.97906899,In Service,1,8
3725,2 Ave & E 72 St,36,41,40.76876203,-73.95840794,In Service,1,5
3726,Center Blvd & 51 Ave,16,20,40.74336608,-73.95960689,In Service,1,3
3727,Frost St & Meeker Ave,35,38,40.71766197,-73.94880027,In Service,1,3
3728,Pierrepont St & Monroe Pl,21,24,40.69535693,-73.99344027,In Service,1,3
3733,Avenue C & E 18 St,13,46,40.730563,-73.973984,In Service,1,30
3734,E 58 St &  1 Ave (NW Corner),49,50,40.759125,-73.962658,In Service,1,1
3737,Stanton St & Norfolk St,4,35,40.720747,-73.986274,In Service,1,30
3745,36 Ave & 31 St,27,27,40.75651273,-73.92957486,In Service,1,0
3746,6 Ave & Broome St,13,48,40.72430832,-74.00473036,In Service,1,33
3747,E 84 St & 3 Ave,15,33,40.77755374,-73.9551276,In Service,1,18
3749,Lexington Ave & E 36 St,23,23,40.74757396,-73.97880077,In Service,1,0